{
  "source": "B&B Paper 2026 final submission, Appendix A Table A.1 and Figure 1. The paper provides POC identities, addresses, and transportation distance/time/cost to the California manufacturing site. Latitude/longitude values are address/city-level coordinates used to construct geographic graph edges in this repository.",
  "manufacturing_site": {
    "name": "Kite Pharma",
    "city": "El Segundo",
    "state": "California",
    "address": "2355 Utah Ave, El Segundo, CA 90245 USA",
    "latitude": 33.9164,
    "longitude": -118.3990
  },
  "suppliers": [
    {
      "id": 1,
      "city": "San Jose",
      "state": "California",
      "latitude": 37.3382,
      "longitude": -121.8863
    },
    {
      "id": 2,
      "city": "Waltham",
      "state": "Massachusetts",
      "latitude": 42.3765,
      "longitude": -71.2356
    }
  ],
  "clinics": [
    {
      "index": 1,
      "name": "Seattle Cancer Care Alliance",
      "city": "Seattle",
      "state": "Washington",
      "address": "825 Eastlake Ave E, Seattle, WA 98109",
      "latitude": 47.6263,
      "longitude": -122.3308,
      "distance_to_ca_miles": 1200.0,
      "duration_to_ca_hours": 2.8333,
      "cost_to_ca_usd": 312.0,
      "supplier": 1
    },
    {
      "index": 2,
      "name": "Oregon Health and Science University Hospital",
      "city": "Portland",
      "state": "Oregon",
      "address": "3181 SW Sam Jackson Park Rd, Portland, OR 97239",
      "latitude": 45.4993,
      "longitude": -122.6867,
      "distance_to_ca_miles": 1000.0,
      "duration_to_ca_hours": 2.3333,
      "cost_to_ca_usd": 287.0,
      "supplier": 1
    },
    {
      "index": 3,
      "name": "Stanford Health Care",
      "city": "Palo Alto",
      "state": "California",
      "address": "211 Quarry Rd #302, Palo Alto, CA 94304",
      "latitude": 37.4336,
      "longitude": -122.1750,
      "distance_to_ca_miles": 400.0,
      "duration_to_ca_hours": 1.25,
      "cost_to_ca_usd": 97.0,
      "supplier": 1
    },
    {
      "index": 4,
      "name": "UCLA Health",
      "city": "Los Angeles",
      "state": "California",
      "address": "700 W 7th St S270-D, Los Angeles, CA 90017",
      "latitude": 34.0485,
      "longitude": -118.2577,
      "distance_to_ca_miles": 20.0,
      "duration_to_ca_hours": 0.5833,
      "cost_to_ca_usd": 0.0,
      "supplier": 1
    },
    {
      "index": 5,
      "name": "UC San Diego Health",
      "city": "San Diego",
      "state": "California",
      "address": "200 W Arbor Dr, San Diego, CA 92103",
      "latitude": 32.7530,
      "longitude": -117.1650,
      "distance_to_ca_miles": 120.0,
      "duration_to_ca_hours": 2.1333,
      "cost_to_ca_usd": 0.0,
      "supplier": 1
    },
    {
      "index": 6,
      "name": "Mayo Clinic Arizona",
      "city": "Phoenix",
      "state": "Arizona",
      "address": "5701 E Mayo Blvd, Phoenix, AZ 85054",
      "latitude": 33.6584,
      "longitude": -111.9565,
      "distance_to_ca_miles": 485.0,
      "duration_to_ca_hours": 1.25,
      "cost_to_ca_usd": 281.0,
      "supplier": 1
    },
    {
      "index": 7,
      "name": "Colorado Blood Cancer Institute",
      "city": "Denver",
      "state": "Colorado",
      "address": "1721 E 19th Ave #300, Denver, CO 80218",
      "latitude": 39.7477,
      "longitude": -104.9670,
      "distance_to_ca_miles": 1100.0,
      "duration_to_ca_hours": 2.25,
      "cost_to_ca_usd": 252.0,
      "supplier": 1
    },
    {
      "index": 8,
      "name": "Baylor University Medical Center / Texas Oncology",
      "city": "Dallas",
      "state": "Texas",
      "address": "3410 Worth St Suite 400, Dallas, TX 75246",
      "latitude": 32.7899,
      "longitude": -96.7794,
      "distance_to_ca_miles": 1500.0,
      "duration_to_ca_hours": 2.8333,
      "cost_to_ca_usd": 285.0,
      "supplier": 1
    },
    {
      "index": 9,
      "name": "Mayo Clinic",
      "city": "Rochester",
      "state": "Minnesota",
      "address": "200 1st St SW, Rochester, MN 55905",
      "latitude": 44.0227,
      "longitude": -92.4669,
      "distance_to_ca_miles": 2000.0,
      "duration_to_ca_hours": 5.5,
      "cost_to_ca_usd": 374.0,
      "supplier": 2
    },
    {
      "index": 10,
      "name": "Siteman Cancer Center",
      "city": "St. Louis",
      "state": "Missouri",
      "address": "4921 Parkview Pl, St. Louis, MO 63110",
      "latitude": 38.6368,
      "longitude": -90.2630,
      "distance_to_ca_miles": 1900.0,
      "duration_to_ca_hours": 3.4167,
      "cost_to_ca_usd": 464.0,
      "supplier": 2
    },
    {
      "index": 11,
      "name": "Norton Cancer Institute",
      "city": "Louisville",
      "state": "Kentucky",
      "address": "4950 Norton Healthcare Blvd Suite 300, Louisville, KY 40241",
      "latitude": 38.2986,
      "longitude": -85.5768,
      "distance_to_ca_miles": 2200.0,
      "duration_to_ca_hours": 4.0833,
      "cost_to_ca_usd": 352.0,
      "supplier": 2
    },
    {
      "index": 12,
      "name": "Cancer Treatment Centers of America Chicago",
      "city": "Zion",
      "state": "Illinois",
      "address": "2520 Elisha Ave, Zion, IL 60099",
      "latitude": 42.4461,
      "longitude": -87.8329,
      "distance_to_ca_miles": 2100.0,
      "duration_to_ca_hours": 3.8333,
      "cost_to_ca_usd": 314.0,
      "supplier": 2
    },
    {
      "index": 13,
      "name": "Massachusetts General Hospital Cancer Center",
      "city": "Boston",
      "state": "Massachusetts",
      "address": "55 Fruit St, Boston, MA 02114",
      "latitude": 42.3632,
      "longitude": -71.0689,
      "distance_to_ca_miles": 3000.0,
      "duration_to_ca_hours": 5.3333,
      "cost_to_ca_usd": 506.0,
      "supplier": 2
    },
    {
      "index": 14,
      "name": "Memorial Sloan Kettering Cancer Center",
      "city": "New York",
      "state": "New York",
      "address": "1275 York Ave, New York, NY 10065",
      "latitude": 40.7644,
      "longitude": -73.9566,
      "distance_to_ca_miles": 2900.0,
      "duration_to_ca_hours": 5.1667,
      "cost_to_ca_usd": 625.0,
      "supplier": 2
    },
    {
      "index": 15,
      "name": "Penn State Cancer Institute",
      "city": "Hershey",
      "state": "Pennsylvania",
      "address": "400 University Dr, Hershey, PA 17033",
      "latitude": 40.2645,
      "longitude": -76.6740,
      "distance_to_ca_miles": 2700.0,
      "duration_to_ca_hours": 6.6667,
      "cost_to_ca_usd": 672.0,
      "supplier": 2
    },
    {
      "index": 16,
      "name": "MedStar Georgetown University Hospital",
      "city": "Washington",
      "state": "DC",
      "address": "3800 Reservoir Rd NW, Washington, DC 20007",
      "latitude": 38.9121,
      "longitude": -77.0753,
      "distance_to_ca_miles": 2700.0,
      "duration_to_ca_hours": 4.75,
      "cost_to_ca_usd": 497.0,
      "supplier": 2
    },
    {
      "index": 17,
      "name": "Levine Cancer Institute",
      "city": "Charlotte",
      "state": "North Carolina",
      "address": "1021 Morehead Medical Dr, Charlotte, NC 28204",
      "latitude": 35.2121,
      "longitude": -80.8392,
      "distance_to_ca_miles": 2500.0,
      "duration_to_ca_hours": 4.5,
      "cost_to_ca_usd": 428.0,
      "supplier": 2
    },
    {
      "index": 18,
      "name": "Winship Cancer Institute of Emory University",
      "city": "Atlanta",
      "state": "Georgia",
      "address": "1365 E Clifton Rd NE Building C, Atlanta, GA 30322",
      "latitude": 33.7926,
      "longitude": -84.3219,
      "distance_to_ca_miles": 2200.0,
      "duration_to_ca_hours": 4.0,
      "cost_to_ca_usd": 377.0,
      "supplier": 2
    },
    {
      "index": 19,
      "name": "Mayo Clinic Florida",
      "city": "Jacksonville",
      "state": "Florida",
      "address": "4500 San Pablo Rd S, Jacksonville, FL 32224",
      "latitude": 30.2641,
      "longitude": -81.4393,
      "distance_to_ca_miles": 2500.0,
      "duration_to_ca_hours": 4.4167,
      "cost_to_ca_usd": 588.0,
      "supplier": 2
    },
    {
      "index": 20,
      "name": "Miami Cancer Institute",
      "city": "Miami",
      "state": "Florida",
      "address": "8900 N Kendall Dr, Miami, FL 33176",
      "latitude": 25.6863,
      "longitude": -80.3407,
      "distance_to_ca_miles": 2800.0,
      "duration_to_ca_hours": 4.6667,
      "cost_to_ca_usd": 570.0,
      "supplier": 2
    }
  ]
}
